[{"identifier":"\n21","name":"Florence Bank Station","has_kiosk":"0","needs_maintenance":"0","dock_count":"7","docked_bike_count":"4","address":"19 Meadow Street Florence MA @ Lilly Library","latitude":"42.335499","longitude":"-72.673988"},{"identifier":"\n24","name":"Florence Center","has_kiosk":"0","needs_maintenance":"0","dock_count":"10","docked_bike_count":"2","address":"31 Main Street Florence MA","latitude":"42.331380","longitude":"-72.663650"},{"identifier":"\n30","name":"Jackson Street","has_kiosk":"0","needs_maintenance":"0","dock_count":"16","docked_bike_count":"8","address":"7A-7D Jackson Street Northampton MA","latitude":"42.330139","longitude":"-72.645279"},{"identifier":"\n25","name":"Cooley Dickinson Health Care","has_kiosk":"0","needs_maintenance":"1","dock_count":"14","docked_bike_count":"6","address":"51 Locust Street Northampton MA","latitude":"42.332111","longitude":"-72.653954"},{"identifier":"\n29","name":"State St/Mass Central Rail Trail","has_kiosk":"0","needs_maintenance":"0","dock_count":"10","docked_bike_count":"4","address":"State Street/Mass Central Rail Trail","latitude":"42.358841","longitude":"-71.056358"},{"identifier":"\n33","name":"Northampton High School","has_kiosk":"0","needs_maintenance":"0","dock_count":"15","docked_bike_count":"8","address":"380 Elm Street Northampton MA","latitude":"42.3252413","longitude":"-72.6507929"},{"identifier":"\n20","name":"Village Hill/State Hospital","has_kiosk":"0","needs_maintenance":"0","dock_count":"14","docked_bike_count":"6","address":"Village Hill/State Hospital","latitude":"42.3137038","longitude":"-72.6507563"},{"identifier":"\n26","name":"John M Greene Hall/Smith College","has_kiosk":"0","needs_maintenance":"0","dock_count":"16","docked_bike_count":"5","address":"1 Chapin Way Northampton MA @ John M. Greene Hall","latitude":"42.3194444","longitude":"-72.6402443"},{"identifier":"\n23","name":"Forbes Library","has_kiosk":"0","needs_maintenance":"0","dock_count":"13","docked_bike_count":"6","address":"20 West Street Northampton MA","latitude":"42.3166597","longitude":"-72.637956"},{"identifier":"\n27","name":"Pulaski Park/Downtown","has_kiosk":"1","needs_maintenance":"0","dock_count":"11","docked_bike_count":"3","address":"274 Main Street Northampton MA at Pulaski Park","latitude":"42.317162","longitude":"-72.6355115"},{"identifier":"\n31","name":"Main Street/Court House","has_kiosk":"0","needs_maintenance":"1","dock_count":"10","docked_bike_count":"3","address":"99 Main Street Northampton MA","latitude":"42.319515","longitude":"-72.632782"},{"identifier":"\n28","name":"Northampton Train Station","has_kiosk":"1","needs_maintenance":"0","dock_count":"13","docked_bike_count":"5","address":"Northampton Train Station","latitude":"42.3188531","longitude":"-72.6286286"},{"identifier":"\n32","name":"Main Street/Bridge Street","has_kiosk":"0","needs_maintenance":"0","dock_count":"15","docked_bike_count":"8","address":"1 Bridge Street Northampton MA","latitude":"42.3204713","longitude":"-72.6302873"}]